Lat,Long,floatplanes,LakeName
59.984,-154.794,1,Sixmile Lake
58.664,-156.489,1,<Unknown/Unnamed>
58.508,-156.949,1,<Unknown/Unnamed>
59.976,-148.775,1,Big Johnstone Lake
64.546,-149.071,1,Nenana Municipal Airport Floatpond
67.082,-163.434,1,<Unknown/Unnamed>
68.166,-149.691,1,Atigun River  
66.198,-163.928,1,Nugnugaluktuk River
66.591,-163.97,1,<Unknown/Unnamed>
65.742,-167.61,1,Lopp Lagoon
65.902,-167.05,1,Ikpek Lagoon
62.27,-148.436,1,Talkeetna River/Clear Creek Area
66.192,-161.047,1,Buckland River
59.533,-161.397,1,Arolik River
60.307,-157.304,1,Nushagak River
59.018,-155.596,1,Kvichak River
61.513,-154.508,1,Swift River
58.672,-156.661,1,Naknek River
67.169,-147.268,1,East Fork Chandalar River
67.536,-154.054,1,Alatna River
64.523,-154.25,1,Nowitna River
64.731,-156.911,1,Yukon River
68.017,-158.778,1,Nanielik Creek
68.672,-146.996,1,Ivishak River
68.649,-155.8,1,<Unknown/Unnamed>
69.006,-151.932,1,Chandler River
60.233,-144.192,1,<Unknown/Unnamed>
68.27,-147.265,1,Wind River
61.96,-151.191,1,Skwentna River
67.136,-162.354,1,Noatak River
60.504,-155.572,1,Mulchatna River
61.822,-150.837,1,Yentna River
64.972,-150.86,1,Tanana River
65.258,-151.323,1,Yukon River
61.984,-150.749,1,Kahiltna River
61.627,-149.801,1,Little Susitna River
66.444,-165.019,1,Shishmaref Inlet
61.3174,-150.26222361111112,1,Susitna River
67.487,-150.438,1,<Unknown/Unnamed>
67.837,-148.683,1,North Fork Chandalar River
59.738,-154.972,1,<Unknown/Unnamed>
62.146,-145.41,1,Copper River
65.616,-153.56,1,Melozitna River
65.026,-148.26,1,<Unknown/Unnamed>
59.463,-159.773,1,Togiak River
62.04,-163.335,1,Yukon River
59.187,-155.041,1,<Unknown/Unnamed>
66.771,-155.636,1,Kobuk River
65.57,-147.683,1,Beaver Creek
65.026,-157.341,1,Koyukuk River
66.351,-147.359,1,<Unknown/Unnamed>
65.549,-143.736,1,Yukon River
64.803,-149.172,1,Tanana River
63.601,-157.16,1,Innoko River
61.7729,-150.2462,1,Susitna River
66.528,-141.02,1,<Unknown/Unnamed>
66.051,-148.88,1,Yukon River
63.385,-147.541,1,West Fork Susitna River
67.896,-148.37,1,<Unknown/Unnamed>
59.295,-161.2,1,Middle Fork Goodnews River
60.787,-152.261,1,Big River
60.474,-145.413,1,Glacier River
61.153,-156.629,1,Holitna River
69.033,-154.19,1,Colville River
63.465,-148.819,1,Nenana River
68.084,-162.315,1,Kelly River
68.257,-149.995,1,Itkillik River
64.511,-150.208,1,Kantishna River
63.6,-159.402,1,Yukon River
66.731,-144.562,1,Porcupine River
64.568,-148.871,1,Tanana River
61.077,-147.864,1,Coghill River
64.858,-151.352,1,Tanana River
63.147,-158.734,1,<Unknown/Unnamed>
60.55,-150.745,1,Moose River
61.701,-150.322,1,Kroto Creek
66.414,-165.028,1,Cowpack Inlet
60.924,-151.737,1,Mcarthur River
58.995,-154.159,1,<Unknown/Unnamed>
67.106,-159.752,1,Kobuk River
66.906,-151.682,1,Koyukuk River
65.044,-153.916,1,Yukon River
61.438,-150.597,1,Alexander Creek
62.346,-150.036,1,Talkeetna River
60.788,-161.737,1,Lower Kuskokwim River
68.044,-149.595,1,Chandalar Shelf
67.8,-151.547,1,Tinayguk River
68.117,-151.108,1,Anaktuvuk River
68.399,-159.861,1,Nimiuktuk River
68.065,-147.697,1,Middle Fork Chandalar River
67.119,-151.482,1,North Fork Koyukuk River
70.554,-153.545,1,Teshekpuk Lake
62.887,-149.965,1,Fountain River
61.948,-150.961,1,Fish Lakes
60.288,-150.035,1,Skilak Glacier Lake
62.86,-150.692,1,Glacial Lake West Of Ruth Glacier
61.25,-150.793,1,Chedatna Lakes
70.927,-155.38,1,<Unknown/Unnamed>
56.956,-158.59,1,Hendrickson Lake
55.996,-160.231,1,Bear Lake
62.003,-151.387,1,Hewitt Lake
60.755,-150.395,1,Buteo Lake
62.724,-148.045,1,Watana Lake
62.684,-148.918,1,Stephan Lake
62.675,-148.951,1,Unnamed Lake Along Prarie Creek Below Stephan Lake
62.548,-148.899,1,<Unknown/Unnamed>
62.34,-149.303,1,Rainbow Lake
62.479,-149.651,1,<Unknown/Unnamed>
61.77,-150.755,1,<Unknown/Unnamed>
62.423,-149.789,1,Sockeye Lake
62.407,-149.637,1,<Unknown/Unnamed>
62.398,-149.831,1,Katie Lake
62.329,-149.9,1,Larson Lake
62.486,-150.331,1,Lake Denali
62.321,-150.316,1,Scotty Lake
62.32,-150.414,1,<Unknown/Unnamed>
62.316,-150.063,1,Christiansen Lake
66.782,-146.672,1,Sardine Can Lake
66.396,-164.479,1,Devil Mountain Lakes
67.735,-147.762,1,Stringo Lakes
62.508,-144.462,1,<Unknown/Unnamed>
62.813,-144.189,1,Long Lake
62.191,-144.87,1,Chelle Lake
62.369,-144.59,1,<Unknown/Unnamed>
61.26,-150.771,1,Chedatna Lakes
62.297,-145.347,1,Unnamed Lake N Of Gakona
62.595,-145.099,1,<Unknown/Unnamed>
63.11,-145.53,1,Summit Lake
62.925,-145.526,1,Paxson Lake
62.436,-151.41,1,Chelatna Lake
59.049,-158.582,1,Shannons Pond
59.808,-158.54,1,Grant Lake
61.268,-148.535,1,Inner Lake George
61.988,-151.398,1,Whiskey Lake
59.929,-158.265,1,Tikchik Lake
61.089,-147.831,1,Coghill Lake
61.805,-147.957,1,Index Lake
61.832,-148.259,1,Rush Lake
60.929,-148.795,1,Twentymile Glacier Lake
60.914,-148.777,1,Carmen Lake
61.343,-149.005,1,Eklutna Lake
63.346,-146.864,1,<Unknown/Unnamed>
61.627,-149.24,1,Gooding Lake
61.617,-149.216,1,Walby Lake
61.528,-148.909,1,Swan Lake
61.642,-149.284,1,Wolf Lake
61.619,-149.335,1,Anderson Lake
61.582,-149.402,1,Wasilla Lake
61.539,-149.406,1,Reedy Lake
66.883,-150.516,1,Grayling Lake
67.15,-150.867,1,Florence Creek Lake
66.279,-151.45,1,<Unknown/Unnamed>
66.262,-151.448,1,<Unknown/Unnamed>
66.444,-151.696,1,<Unknown/Unnamed>
66.306,-151.686,1,Taclodahten Lake
66.576,-151.643,1,<Unknown/Unnamed>
66.564,-151.69,1,Minnkokut Lake
68.051,-147.134,1,<Unknown/Unnamed>
68.402,-148.123,1,<Unknown/Unnamed>
67.602,-148.199,1,Squaw Lake
67.841,-148.248,1,<Unknown/Unnamed>
68.063,-148.44,1,<Unknown/Unnamed>
61.203,-142.265,1,Big Bend Lakes
61.193,-143.538,1,Middle Hanagita Lake
61.233,-143.798,1,Hanagita Lake
61.5,-144.146,1,Strelna Lake
61.223,-144.217,1,Lower Tebay Lake
61.315,-144.192,1,Summit Lake
61.02,-144.509,1,Steamboat Lake
61.841,-144.791,1,Dadina Lake
62.127,-145.928,1,Mud Lake
62.42,-145.969,1,<Unknown/Unnamed>
61.838,-146.199,1,Kaina Lake
62.112,-146.048,1,Tolsona Lake
62.164,-146.995,1,Kelly Lake
62.066,-146.588,1,Nickoli Lake
62.307,-146.58,1,Lake Louise
60.092,-149.013,1,Ellsworth Glacier Lake
60.344,-149.077,1,Lower Paradise Lake
60.693,-149.021,1,Spencer Glacier Lake
60.45,-149.487,1,Crescent Lake
60.197,-149.356,1,Bear Lake
60.265,-149.428,1,Lost Lake
60.629,-149.509,1,Summit Lake
60.341,-149.882,1,Upper Russian Lake
60.632,-149.883,1,Swan Lake
60.577,-149.878,1,Juneau Lake
60.555,-149.912,1,Trout Lake
60.28,-150.163,1,Twin Lakes
60.279,-150.149,1,Twin Lakes
60.848,-150.233,1,Barbara Lake
60.822,-150.346,1,<Unknown/Unnamed>
60.759,-150.076,1,Trapper Joe Lake
60.487,-150.715,1,Browns Lake
60.726,-150.526,1,Birch Lake
60.989,-150.43,1,Vogel Lake
60.919,-150.403,1,Phalarope Lake
60.459,-151.065,1,Headquarters Lake
60.332,-151.029,1,Bay Lake
60.725,-151.045,1,Plover Lake
60.682,-151.035,1,Akula Lake
60.656,-150.981,1,Beaver Lake
60.639,-150.903,1,Middle Finger Lake
60.649,-150.881,1,East Finger Lake
60.776,-151.055,1,Stormy Lake
60.595,-150.997,1,Spirit Lake
60.593,-150.928,1,Donkey Lake
60.594,-150.882,1,Sunken Island Lake
60.525,-151.008,1,Mackeys Lakes
60.534,-150.996,1,Mackey's Lakes
60.533,-150.844,1,Scout Lake
60.253,-151.305,1,<Unknown/Unnamed>
60.705,-151.239,1,<Unknown/Unnamed>
60.733,-151.189,1,Daniels Lake
60.73,-151.133,1,Beck Lake
60.643,-151.305,1,Salamatof Lake
60.573,-151.252,1,Kenai Float Pond
58.731,-159.298,1,<Unknown/Unnamed>
61.296,-150.748,1,Chedatna Lakes
59.086,-159.161,1,Amanka Lake
65.255,-148.717,1,<Unknown/Unnamed>
61.97,-150.961,1,Fish Lakes
66.178,-149.58,1,Sussaymin Lakes
66.122,-151.391,1,Sithylemenkat Lake
60.441,-144.259,1,Deadwood Lake
60.429,-144.19,1,Lake Charlotte
60.409,-144.307,1,Lake Tokun
60.38,-144.117,1,Kushtaka Lake
60.298,-144.316,1,Bering Lake
60.369,-144.561,1,Martin Lake
61.018,-144.831,1,<Unknown/Unnamed>
60.462,-145.187,1,Mckinley Lake
61.087,-146.129,1,Robe Lake
61.21,-155.725,1,Tundra Lake
61.614,-156.858,1,Big Lake
60.466,-158.92,1,Nishlik Lake
65.223,-156.597,1,<Unknown/Unnamed>
65.391,-156.544,1,Teethcanoe Lake
60.221,-150.969,1,Tustumena Lake
64.794,-157.612,1,<Unknown/Unnamed>
59.476,-154.55,1,Iliamna Lake
60.429,-150.205,1,Skilak Lake
67.478,-148.637,1,Chandalar Lake
67.522,-149.074,1,Twin Lakes
67.494,-149.391,1,Bob Johnson Lake
66.321,-151.994,1,Kaldolyeit Lake
66.883,-151.488,1,Unnamed Floatpond In Bettles
66.59,-151.476,1,Fish Creek Lake
67.748,-148.275,1,<Unknown/Unnamed>
61.383,-143.289,1,Long Lake
61.185,-144.347,1,Upper Tebay Lake
61.039,-144.735,1,<Unknown/Unnamed>
65.385,-163.232,1,Kuzitrin Lake
65.595,-163.201,1,Imuruk Lake
62.313,-146.011,1,Crosswind Lake
61.681,-145.975,1,Klutina Lake
61.878,-146.503,1,Tazlina Lake
60.949,-154.836,1,Whitefish Lake
60.814,-154.88,1,Half Cabin Lake
62.248,-150.06,1,Fish Lake
61.976,-150.224,1,Trapper Lake
61.284,-150.393,1,<Unknown/Unnamed>
61.741,-150.058,1,Willow Lake
61.995,-150.476,1,<Unknown/Unnamed>
61.931,-150.382,1,Neil Lake
61.687,-150.01,1,Nancy Lake
61.503,-150.025,1,Diamond Lake
61.502,-150.166,1,Piper Lake
66.243,-146.394,1,<Unknown/Unnamed>
67.063,-154.311,1,Walker Lake
66.967,-154.663,1,Nutuvukti Lake
61.536,-149.864,1,Big Lake
60.385,-146.253,1,<Unknown/Unnamed>
66.373,-164.051,1,Killeak Lakes
66.328,-164.12,1,Killeak Lakes
66.342,-164.016,1,<Unknown/Unnamed>
66.376,-164.752,1,White Fish Lake
68.238,-152.692,1,Chandler Lake
67.389,-152.987,1,Ernie Lake
67.717,-156.139,1,Lake Isiak
62.622,-142.021,1,Jatahmund Lake
59.178,-155.35,1,Kukaklek Lake
58.982,-155.125,1,Nonvianuk Lake
59.906,-151.068,1,Caribou Lake
66.923,-157.624,1,<Unknown/Unnamed>
66.922,-157.734,1,<Unknown/Unnamed>
59.544,-151.207,1,China Poot Lake
59.646,-151.5,1,Beluga Lake
63.0,-144.541,1,Mankomen Lake
60.503,-150.91,1,Longmere Lake
60.826,-150.368,1,Wilderness Lake
60.424,-149.677,1,Kenai Lake
60.603,-149.253,1,Johnson Lake
60.474,-149.231,1,Grant Lake
60.513,-149.37,1,Upper Trail Lake
61.336,-149.994,1,Lost Lake
63.473,-143.409,1,Lake Mansfield
63.22,-148.488,1,<Unknown/Unnamed>
61.143, -151.125,1,Tukallah Lake
61.411,-151.508,1,Beluga Lake
60.872,-151.867,1,Bunitlana Lake
60.357,-152.881,1,Crescent Lake
61.196,-152.757,1,Ch'Akajabena Lake
60.944,-153.773,1,Telaquana Lake
61.121,-153.789,1,Two Lakes
59.487,-154.187,1,Kakhonak Lake
58.982,-155.093,1,Kulik Lake
59.072,-154.924,1,Battle Lake
68.229,-158.291,1,Feniak Lake
68.331,-158.746,1,Desperation Lake
68.001,-159.182,1,Lake Kangilipak
68.372,-159.931,1,<Unknown/Unnamed>
67.97,-161.689,1,Tulugak Lake
61.123,-149.534,1,<Unknown/Unnamed>
61.18,-149.971,1,Lake Hood/Lake Spenard
61.152,-149.96,1,Sand Lake
61.153,-149.911,1,Strawberry Lake
61.132,-149.93,1,Campbell Lake
61.46,-149.948,1,Sevenmile Lake
59.095,-159.441,1,Ualik Lake
63.977,-144.757,1,Healy Lake
63.778,-144.557,1,Lake George
64.943,-149.005,1,<Unknown/Unnamed>
59.548,-159.67,1,Togiak Lake
64.999,-149.725,1,<Unknown/Unnamed>
64.753,-150.23,1,Iksgiza Lake
64.753,-150.465,1,Kindanina Lake
60.1,-159.657,1,Heart Lake
59.135,-160.082,1,Negukthlik River
59.312,-159.879,1,Pungokepuk Lake
67.978,-146.959,1,Big Ram Lake
60.054,-154.138,1,Upper Tazimina Lake
60.411,-153.682,1,Little Lake Clark
60.637,-153.958,1,Twin Lakes
60.179,-154.204,1,Kontrashibuna Lake
60.388,-153.856,1,Lake Clark
59.997,-154.468,1,Lower Tazimina Lake
59.395,-160.376,1,Gechiak Lake
59.344,-160.474,1,Kukaktlim Lake
59.713,-160.305,1,Kanuktik Lake
60.452,-148.114,1,Eshamy Lake
59.244,-150.956,1,<Unknown/Unnamed>
59.491,-160.549,1,Goodnews Lake
62.785,-148.484,1,Fog Lakes
63.228,-146.002,1,Fish Lake
62.988,-146.054,1,Upper Tangle Lake
67.763,-150.497,1,Lake Off Chimney Fork/Chimney Pass
67.495,-151.577,1,Wild Lake
58.798,-155.666,1,Lake Coville
68.054,-145.029,1,Old John Lake
66.574,-145.246,1,Hospital Lake
68.115,-145.559,1,Loon Lake
67.997,-161.727,1,Lake Narvakrak
60.232,-158.947,1,Chikuminuk Lake
60.037,-158.963,1,Lake Chauekuktuli
60.358,-158.894,1,Upnuk Lake
60.318,-159.348,1,Kisaralik Lake
63.635,-143.433,1,<Unknown/Unnamed>
63.377,-143.546,1,Moon Lake
63.798,-143.88,1,T Lake
63.487,-147.849,1,<Unknown/Unnamed>
63.193,-147.85,1,Butte Lake
63.008,-148.248,1,Deadman Lake
63.265,-148.143,1,<Unknown/Unnamed>
58.493,-156.002,1,Lake Brooks
63.239,-148.795,1,<Unknown/Unnamed>
67.136,-163.6,1,Krusenstern Lagoon
57.612,-156.713,1,Upper Ugashik Lake
57.185,-157.284,1,Mother Goose Lake
64.421,-149.895,1,Dune Lake
64.652,-149.862,1,Black Bear Lake
64.666,-149.822,1,<Unknown/Unnamed>
61.219,-150.903,1,Seeley Lake
61.655,-150.899,1,Sucker Lake
61.624,-150.76,1,Trail Lake
61.078,-151.416,1,Congahbuna Lake
61.051,-151.223,1,Kaldachabuna Lake
61.348,-151.342,1,Lower Beluga Lake
61.255,-151.294,1,Felt Lake
61.735,-151.385,1,Hiline Lake
61.625,-151.45,1,Movie Lake
61.588,-151.445,1,Trinity Lake
61.489,-151.545,1,Coal Creek Lake
61.567,-151.55,1,Judd Lake
60.783,-151.879,1,<Unknown/Unnamed>
60.789,-151.893,1,<Unknown/Unnamed>
60.782,-151.933,1,<Unknown/Unnamed>
61.03,-152.126,1,<Unknown/Unnamed>
60.682,-152.396,1,Double Glacier Big River Lake
60.578,-152.357,1,<Unknown/Unnamed>
60.802,-152.272,1,Big River Lakes
60.786,-152.324,1,Big River Lakes
60.791,-152.791,1,Summit Lake
60.138,-157.472,1,<Unknown/Unnamed>
60.473,-159.176,1,Aniak Lake
59.237,-154.761,1,Mirror Lake
59.357,-154.71,1,Gibraltar Lake
59.306,-154.718,1,Emerald Lake
64.423,-151.268,1,<Unknown/Unnamed>
64.393,-151.133,1,<Unknown/Unnamed>
62.854,-152.622,1,Amos Lakes
63.022,-152.791,1,Haynes Lake
63.528,-152.521,1,Big Lake
59.562,-158.781,1,Lake Nerka
59.292,-158.676,1,Lake Aleknagik
59.795,-158.78,1,Lake Kulik
59.615,-158.546,1,Lake Beverley
59.264,-158.929,1,Lake Nunavaugaluk
59.745,-158.868,1,Mikchalk Lake
59.904,-158.91,1,Nuyakuk Lake
67.044,-143.407,1,Graphite Lake
68.436,-143.969,1,<Unknown/Unnamed>
67.922,-144.106,1,Big Fish Lake
68.429,-144.24,1,<Unknown/Unnamed>
68.313,-144.254,1,<Unknown/Unnamed>
68.685,-144.427,1,<Unknown/Unnamed>
66.183,-151.719,1,<Unknown/Unnamed>
66.175,-151.75,1,Kanuti Lake
66.208,-152.204,1,<Unknown/Unnamed>
66.14,-152.128,1,<Unknown/Unnamed>
66.44,-152.206,1,<Unknown/Unnamed>
57.499,-156.861,1,Lower Ugashik Lake
66.158,-152.956,1,Lake Todatonten
66.095,-165.522,1,<Unknown/Unnamed>
63.64,-158.033,1,Stream off Innoko River
58.626,-155.927,1,Naknek Lake
57.932,-156.481,1,Becharof Lake
64.848,-154.714,1,<Unknown/Unnamed>
67.969,-155.444,1,<Unknown/Unnamed>
67.96,-155.131,1,<Unknown/Unnamed>
67.909,-155.052,1,<Unknown/Unnamed>
67.896,-155.085,1,<Unknown/Unnamed>
68.005,-155.675,1,<Unknown/Unnamed>
68.172,-156.03,1,<Unknown/Unnamed>
68.116,-156.065,1,Etivlik Lake
68.125,-156.24,1,Kikitaliorak Lake
68.116,-156.165,1,Near Inyorurak Lakes
68.221,-156.881,1,Nigtun Lake
68.789,-160.004,1,Nullaq Lake
65.413,-144.164,1,<Unknown/Unnamed>
65.734,-144.112,1,Ninemile Lake
63.506,-144.085,1,Monte Lake
63.859,-144.683,1,Twelvemile Lake
64.964,-148.881,1,<Unknown/Unnamed>
64.905,-148.771,1,Minto Lakes
64.9,-148.816,1,Minto Lakes
64.917,-148.866,1,<Unknown/Unnamed>
64.906,-148.876,1,<Unknown/Unnamed>
64.903,-148.984,1,Beaver Dam Lake
64.881,-148.805,1,Minto Lakes
64.863,-148.975,1,Wooden Canoe Lake
64.973,-149.03,1,<Unknown/Unnamed>
65.184,-149.353,1,<Unknown/Unnamed>
65.093,-149.019,1,Cod Lake
64.843,-149.955,1,Deadman Lake
64.735,-150.282,1,<Unknown/Unnamed>
64.648,-150.308,1,Geskakmina Lake
64.551,-151.145,1,Wilderness Lake
64.763,-151.196,1,<Unknown/Unnamed>
65.084,-151.341,1,Fish Lake
64.596,-151.541,1,<Unknown/Unnamed>
64.741,-156.88,1,Alexander Lake
64.449,-157.838,1,<Unknown/Unnamed>
64.618,-157.595,1,<Unknown/Unnamed>
66.023,-144.693,1,<Unknown/Unnamed>
66.389,-146.356,1,Canvasback Lake
66.122,-146.661,1,<Unknown/Unnamed>
67.347,-153.653,1,Takahula Lake
66.788,-154.296,1,Norutak Lake
66.928,-155.023,1,Lake Minakokosa
66.963,-155.617,1,Narvak Lake
66.874,-155.661,1,Lake Selby
66.988,-156.449,1,Kollioksak Lake
66.302,-142.55,1,Tommy Lake
66.442,-144.384,1,<Unknown/Unnamed>
66.292,-148.136,1,<Unknown/Unnamed>
65.816,-156.315,1,Huntington Slough
62.086,-152.728,1,Puntilla Lake
62.569,-153.654,1,Steele Lake
67.063,-163.243,1,Aukulak Lagoon
67.682,-164.336,1,Imikruk Lagoon
67.32,-141.293,1,<Unknown/Unnamed>
63.163,-149.429,1,<Unknown/Unnamed>
63.161,-149.428,1,Pond Near Colorado Town
63.02,-149.269,1,<Unknown/Unnamed>
63.087,-149.519,1,<Unknown/Unnamed>
63.06,-149.681,1,<Unknown/Unnamed>
62.78,-150.239,1,Spink Lake
62.536,-150.512,1,Bunco Lake
62.344,-150.693,1,Jake Lake
64.421,-146.858,1,Harding Lake
64.316,-146.662,1,Birch Lake
61.631,-149.949,1,Houston Lake
61.618,-149.679,1,Visnaw Lake
61.61,-149.667,1,Seymour Lake
61.583,-149.829,1,Big Beaver Lake
61.771,-149.721,1,Twelvemile Lake
61.324,-150.299,1,<Unknown/Unnamed>
61.314,-150.015,1,Twin Island Lake
61.306,-150.018,1,<Unknown/Unnamed>
61.73,-150.03,1,Jack Lake
61.712,-150.055,1,Honeybee Lake
61.654,-150.053,1,Frazer Lake
61.603,-150.182,1,Red Shirt Lake
61.605,-150.11,1,Heart Lake
61.592,-150.131,1,Butterfly Lake
61.535,-150.071,1,East Papoose Lake
61.535,-150.093,1,West Papoose Lake
61.524,-150.188,1,Hock Lake
61.519,-150.032,1,Crooked Lake
62.161,-150.247,1,Rockys Lakes
61.317,-150.452,1,Figure Eight Lake
61.303,-150.416,1,<Unknown/Unnamed>
61.667,-150.423,1,<Unknown/Unnamed>
61.584,-150.622,1,Otter Lake
61.558,-150.677,1,<Unknown/Unnamed>
61.756,-150.572,1,Lockwood Lake
62.134,-150.865,1,Shulin Lake
62.112,-150.923,1,Quiet Lake
61.935,-150.928,1,Bulchitna Lake
61.824,-151.043,1,<Unknown/Unnamed>
61.750,-150.901,1,Alexander Lake
61.941,-151.437,1,Hewitt Creek Lake
61.845,-151.143,1,Eightmile Lake
61.825,-151.221,1,Sevenmile Lake
68.809,-145.838,1,<Unknown/Unnamed>
68.786,-146.457,1,Porcupine Lake
68.284,-147.431,1,<Unknown/Unnamed>
68.259,-147.387,1,<Unknown/Unnamed>
68.448,-149.413,1,Galbraith Lake
68.397,-149.915,1,Itkillik Lake
68.628,-149.602,1,Toolik Lake
69.317,-145.035,1,Lake Peters
60.542,-145.732,1,Eyak Lake
60.415,-146.23,1,<Unknown/Unnamed>
61.048,-147.5,1,<Unknown/Unnamed>
60.824,-148.09,1,Esther Lake
65.289,-156.216,1,<Unknown/Unnamed>
60.288,-154.346,1,Kijik Lake
59.758,-154.927,1,Pike Lake
60.142,-155.037,1,Long Lake
59.808,-155.353,1,<Unknown/Unnamed>
60.095,-155.426,1,Nikabuna
64.356,-147.382,1,Blair Lakes
66.78,-162.293,1,<Unknown/Unnamed>
66.89,-162.568,1,Kotzebue Ariport Lake
69.831,-152.431,1,<Unknown/Unnamed>
70.061,-153.476,1,<Unknown/Unnamed>
60.065,-143.333,1,Midimber Lake
59.877,-147.463,1,Stump Lake
60.336,-147.713,1,<Unknown/Unnamed>
60.484,-148.441,1,<Unknown/Unnamed>
60.407,-148.183,1,Ewan Lake
60.652,-148.327,1,Lake Shrode
60.545,-148.137,1,Cheimoviski Lake
59.946,-148.663,1,Little Johnstone Lake
59.898,-149.585,1,Bear Lake
59.456,-150.723,1,<Unknown/Unnamed>
59.38,-150.821,1,Petrof Glacier Lake
59.737,-150.774,1,Bradley Lake
59.626,-151.067,1,Humpy Creek Lake
59.485,-151.233,1,<Unknown/Unnamed>
62.579,-147.028,1,<Unknown/Unnamed>
62.678,-147.822,1,Clarence Lake
57.581,-156.119,1,Ruth Lake
66.424,-159.285,1,<Unknown/Unnamed>
58.468,-156.697,1,<Unknown/Unnamed>
67.669,-155.42,1,<Unknown/Unnamed>
67.66,-155.562,1,Lake Omelaktavik
67.743,-156.199,1,Lake Matcharak
67.894,-156.892,1,<Unknown/Unnamed>
67.871,-156.641,1,<Unknown/Unnamed>
67.935,-157.706,1,<Unknown/Unnamed>
68.118,-151.1,1,Anaktuvuk River
66.561,-158.996,1,<Unknown/Unnamed>
66.517,-159.314,1,<Unknown/Unnamed>
61.984,	-152.078,1,Finger Lake
61.951,-151.54,1,Shell Lake
62.22,-151.569,1,<Unknown/Unnamed>
62.145,-151.056,1,<Unknown/Unnamed>
61.458,-150.408,1,Flat Horn Lake
66.411,-160.041,1,<Unknown/Unnamed>
60.948,-154.067,1,<Unknown/Unnamed>
60.79,-153.922,1,Turquoise Lake
59.665,-156.102,1,<Unknown/Unnamed>
63.477,-150.877,1,Wonder Lake
69.993,-151.443,1,<Unknown/Unnamed>
68.161,-150.225,1,<Unknown/Unnamed>
68.072,-150.463,1,<Unknown/Unnamed>
68.336,-151.055,1,Shainin Lake
68.147,-151.713,1,Eleanor Lake
65.006,-148.893,1,<Unknown/Unnamed>
67.118,-152.519,1,<Unknown/Unnamed>
67.117,-153.198,1,Iniakuk Lake
62.278,-141.189,1,Carden Lake
62.51,-141.25,1,<Unknown/Unnamed>
62.648,-141.621,1,<Unknown/Unnamed>
62.958,-141.639,1,Yarger Lake
62.53,-142.393,1,Pickerel Lakes
67.96,-154.878,1,<Unknown/Unnamed>
68.238,-155.164,1,<Unknown/Unnamed>
62.421,-143.377,1,Tanada Lake
62.515,-143.284,1,Jack Lake
59.523,-154.375,1,Fog Lake
59.51,-154.515,1,Pike Lakes
58.87,-155.159,1,Hammersly Lake
58.863,-156.289,1,<Unknown/Unnamed>
59.174,-156.047,1,<Unknown/Unnamed>
59.273,-156.24,1,<Unknown/Unnamed>
67.877,-153.28,1,Natat Lake
67.397,-162.704,1,Aliktongnak Lake
67.321,-162.831,1,Sevisok Slough Area
68.115,-154.117,1,Lake Tulilik
68.392,-154.057,1,<Unknown/Unnamed>
64.819,-147.848,1,Fairbanks International Airport Floatpond
64.811,-147.923,1,Chena Marina Airport
64.81,-147.685,1,Pond In Fort Wainwright
64.812,-147.673,1,Pond In Fort Wainwright
63.18,-145.65,1,Fielding Lake
64.211,-145.838,1,Quartz Lake
62.928,-146.106,1,Dickey Lake
63.182,-146.273,1,Sevenmile Lake
63.039,-146.051,1,Tangle Lakes
64.132,-146.108,1,Rainbow Lake
64.011,-146.215,1,<Unknown/Unnamed>
64.199,-146.587,1,Koole Lake
63.865,-149.608,1,<Unknown/Unnamed>
64.353,-149.981,1,<Unknown/Unnamed>
64.377,-151.276,1,Wien Lake
63.923,-152.183,1,Lake Minchumina
67.384,-163.803,1,Kotlik Lagoon
67.446,-150.85,1,<Unknown/Unnamed>
67.765,-152.237,1,Pamichtuk Lake
63.753,-152.498,1,Lake Snohomish
64.667,-150.176,1,<Unknown/Unnamed>
64.595,-150.338,1,<Unknown/Unnamed>
64.519,-150.431,1,<Unknown/Unnamed>
64.442,-150.821,1,West Twin Lake
64.429,-150.644,1,East Twin Lake
63.522,-158.071,1,<Unknown/Unnamed>
60.191,-151.209,1,Border Lake
60.345,-159.905,1,<Unknown/Unnamed>
61.385,-159.959,1,Whitefish Lake
60.224,-160.324,1,Eek Lake
64.211,-150.902,1,Mucha Lake
64.02,-150.598,1,Alma Lakes
61.002,-160.652,1,<Unknown/Unnamed>
63.92,-151.5,1,Chilchukabena Lake
64.223,-151.2,1,<Unknown/Unnamed>
64.185,-151.214,1,Square Lake
64.142,-151.443,1,<Unknown/Unnamed>
64.028,-151.157,1,John Hansen Lake
63.552,-151.829,1,<Unknown/Unnamed>
63.809,-151.913,1,Carlson Lake
58.184,-152.141,1,<Unknown/Unnamed>
58.35,-152.303,1,Laura Lake
57.452,-152.336,1,Barry Lagoon
57.428,-152.349,1,Twin Lakes
57.802,-152.382,1,Lilly Lake
57.767,-152.497,1,Lake Catherine
58.18,-152.393,1,Big Kitoi Lake
60.804,-161.726,1,Hangar Lake
60.686,-162.136,1,Unnamed Pond In Napakiak
57.538,-152.766,1,<Unknown/Unnamed>
57.814,-152.952,1,<Unknown/Unnamed>
58.197,-152.85,1,<Unknown/Unnamed>
58.098,-152.881,1,Afognak Lake
61.048,-162.551,1,Kayigyalik Lake
57.456,-153.141,1,<Unknown/Unnamed>
57.455,-153.045,1,<Unknown/Unnamed>
57.653,-153.305,1,Uganik Lake
57.63,-153.018,1,Terror Lake
57.769,-153.28,1,<Unknown/Unnamed>
58.159,-153.141,1,Lower Malina Lake
58.157,-153.091,1,Upper Malina Lake
57.123,-153.631,1,<Unknown/Unnamed>
57.317,-153.396,1,<Unknown/Unnamed>
57.735,-153.688,1,Spiridon Lake
57.769,-153.651,1,Little River Lake
56.821,-153.866,1,<Unknown/Unnamed>
56.945,-153.765,1,<Unknown/Unnamed>
57.251,-153.966,1,O'Malley Lake
57.121,-153.919,1,Horse Marine Lake
57.018,-153.925,1,<Unknown/Unnamed>
57.366,-154.027,1,Karluk Lake
57.251,-154.306,1,Red Lake
57.251,-154.135,1,Frazer Lake
57.064,-154.199,1,South Olga Lakes
57.053,-154.286,1,South Olga Lakes
57.189,-154.219,1,Akalura Lake
57.313,-154.607,1,<Unknown/Unnamed>
68.107,-146.16,1,<Unknown/Unnamed>
67.885,-146.407,1,<Unknown/Unnamed>
68.016,-146.922,1,<Unknown/Unnamed>
68.411,-146.715,1,<Unknown/Unnamed>
68.301,-146.453,1,<Unknown/Unnamed>
65.62,-156.922,1,<Unknown/Unnamed>
65.5,-157.219,1,Tachanlowa Lake
58.277,-152.425,1,Portage Lake
65.684,-155.667,1,Hadokhten Lake
66.204,-154.669,1,Lake Tokhakklanten
66.323,-154.593,1,Twin Lakes
63.899,-143.046,1,<Unknown/Unnamed>
58.609,-154.053,1,Kaguyak Crater
57.867,-155.17,1,<Unknown/Unnamed>
56.923,-158.098,1,Surprise Lake
58.406,-154.174,1,<Unknown/Unnamed>
58.087,-154.681,1,Dakavak Lake
56.456,-158.974,1,Black Lake
63.373,-151.09,1,Mcleod Lake
61.343,-143.092,1,Camel Lake
61.532,-150.005,1,Flat Lake
59.928,-158.177,1,Nuyakuk River
61.353,-149.544,1,Fire Lake
61.291,-149.809,1,Sixmile Lake
64.807,-147.76,1,Metro Field
59.026,-155.628,1,Unnamed Lake 1Mile W Of Nonvianuk Lake
62.819,-145.497,1,Meiers Lake
63.841,-149.038,1,Otto Lake
61.621,-149.733,1,Prator Lake
64.766,-147.334,1,Unnamed Lake
62.71,-144.196,1,Grizzly Lake
63.219,-142.263,1,Midway Lake
61.631,-149.569,1,June Lake
61.575,-149.476,1,Lake Lucille
51.88358205555556,-176.64247991666667,0,ADAK
56.93869083333333,-154.18255555555555,0,AKHIOK
60.91380972222222,-161.49332916666665,0,AKIACHAK
60.90786472222222,-161.43507722222222,1,AKIACHAK
60.90289722222222,-161.23058333333333,0,AKIAK
54.1339,-165.77838333333335,1,AKUTAN
54.14461111111111,-165.60410833333333,0,AKUTAN
62.683055555555555,-164.72219444444445,0,ALAKANUK
59.27397805555555,-158.62358916666668,1,ALEKNAGIK
59.282555555555554,-158.61786666666669,0,ALEKNAGIK /NEW
59.280923333333334,-158.59720027777777,0,ALEKNAGIK MISSION STRIP
59.26314583333333,-158.5577552777778,0,TRIPOD
66.55183333333333,-152.6221666666667,0,ALLAKAKET
67.10620227777777,-157.85717086111111,0,AMBLER
65.10398194444444,-151.17723333333333,0,AMERICAN CREEK
57.471493611111114,-153.81536055555557,1,AMOOK BAY
68.13361111111112,-151.7433333333333,0,ANAKTUVUK PASS
59.79666666666667,-151.86333333333332,0,ANCHOR RIVER AIRPARK
59.94888888888889,-151.69222222222223,0,LOWELL FIELD
61.21270277777778,-149.82658333333333,0,ALASKA RGNL HOSPITAL
61.21890555555556,-149.88648055555555,0,ANCHORAGE LOFTS HOTEL HELIPORT
61.34133888888889,-148.99888055555553,0,BOLD
61.158699999999996,-149.7806111111111,0,CAMPBELL AIRSTRIP
61.156130555555556,-149.7923,0,CAMPBELL BLM
61.13306111111111,-149.9419,1,CAMPBELL LAKE SPB
61.25135319444444,-149.8065256666667,0,ELMENDORF AFB
61.23538333333333,-149.74927499999998,0,ELMENDORF HOSPITAL
61.16833722222222,-150.1605536111111,0,FIRE ISLAND
61.1066,-149.86426944444443,0,FLYING CROWN
61.181638888888884,-149.9665,1,LAKE HOOD
61.21354505555556,-149.8447241388889,0,MERRILL FIELD
61.189030555555554,-149.82183055555555,0,PROVIDENCE HOSPITAL
61.28972222222222,-149.80611111111114,0,SIXMILE LAKE
61.116480555555555,-149.81876944444443,0,SKY HARBOR
61.174156499999995,-149.99818863888888,0,TED STEVENS ANCHORAGE INTL
61.224775,-149.83909444444444,0,VIKING
57.50355527777778,-134.5850938888889,1,ANGOON
61.581583333333334,-159.54305555555555,0,ANIAK
55.04229358333333,-131.57089936111112,0,ANNETTE ISLAND
55.06799222222222,-131.55695472222223,1,TAMGAS HARBOR
62.647333333333336,-160.19005555555555,0,ANVIK
62.65622388888889,-160.2054486111111,1,ANVIK
68.11466944444444,-145.57941527777777,0,ARCTIC VILLAGE
52.22058333333334,-174.20619444444444,0,ATKA
60.86788888888889,-162.2742777777778,0,ATMAUTLUAK
70.46711111111111,-157.43566666666666,0,ATQASUK EDWARD BURNELL SR MEMORIAL
52.83254166666667,173.17555416666664,0,CASCO COVE CGS
57.08882583333334,-134.8331413888889,1,BARANOF WARM SPRINGS FLOAT AND SEAPLANE FL
71.28486111111111,-156.76858333333334,0,WILEY POST-WILL ROGERS MEMORIAL
70.11311416666666,-143.65360305555555,0,BARTER ISLAND
58.45520777777778,-135.88517,1,BARTLETT COVE
64.67909027777779,-165.2992013888889,0,BASIN CREEK
65.53988666666666,-161.06237777777778,0,BEAR CREEK 1
63.57160916666667,-156.14405055555554,0,BEAR CREEK 3
56.03668555555555,-160.26620527777777,0,JOHNSONS LANDING
66.36222222222221,-147.4065,0,BEAVER
55.92907805555555,-131.57169055555556,1,BELL ISLAND HOT SPRINGS
60.78202527777778,-161.74312888888886,1,BETHEL
60.778555555555556,-161.8371666666667,0,BETHEL
60.796748055555554,-161.7272963888889,1,HANGAR LAKE
66.91394444444445,-151.52905555555557,0,BETTLES
66.88744444444445,-151.49413888888887,1,VOR LAKE WATERLANE
61.575138888888894,-149.84766666666667,1,BEAVER LAKE
61.534683333333334,-149.81254444444446,0,BIG LAKE
61.48183888888889,-149.77324444444446,1,BROCKER LAKE
61.47261944444445,-149.98246944444443,0,BROWN'S HOMESTEAD
61.51658055555556,-149.93108055555555,0,COWELL'S
61.58983055555556,-149.81666111111113,0,CUBDIVISION
61.531130555555556,-149.70093888888889,0,EAGLES ROOST
61.56963888888889,-149.7244388888889,0,FISHER
61.50666666666667,-149.91194444444446,0,H & H FIELD
61.528,-150.01466666666667,1,HAGGARDS LANDING SEAPLANE BASE
61.551430555555555,-149.94575,1,HOPPE'S
61.57148055555556,-149.9241111111111,1,HORSESHOE LAKE
61.55477222222222,-149.93933611111112,1,JONES LANDING
61.57353888888889,-149.91135,0,KRAMER
61.57638888888889,-149.94333333333333,1,KUCERA
61.58433055555556,-149.9381,0,KUCERA RESIDENCE
61.509166666666665,-149.90861111111113,1,MARION
61.50378888888889,-149.89604444444444,0,OWEN FIELD
61.521575,-149.9271388888889,0,SADDLEBACK ISLAND
61.51486111111111,-149.9290111111111,0,TEAM LEVINE
61.57036666666667,-149.7790388888889,0,TWIN LAKE
61.58936111111112,-149.84733333333335,0,WEST BEAVER
61.58496111111111,-149.84653055555557,1,WEST BEAVER
59.361246666666666,-155.2588213888889,0,BIG MOUNTAIN
66.27447222222222,-145.81819444444443,0,BIRCH CREEK
61.415997222222224,-149.508925,0,BIRCHWOOD
63.53514638888889,-145.8608861111111,0,BLACK RAPIDS
60.42306416666666,-146.14590944444444,0,BOSWELL BAY
64.07830277777778,-141.113375,0,BOUNDARY
65.33133333333333,-166.4657222222222,0,BREVIG MISSION
65.63867194444445,-167.48580694444442,0,BUCK CREEK
65.98155555555556,-161.14913888888887,0,BUCKLAND
65.90765805555556,-161.92630583333332,0,CANDLE 2
63.39120472222222,-148.95561638888887,0,CANTWELL
63.37065,-148.85033611111112,0,GOLDEN NORTH AIRFIELD
56.002113055555554,-134.13533916666665,0,CAPE DECISION LIGHTHOUSE
68.87512777777778,-166.11108194444444,0,CAPE LISBURNE LRRS
58.64815,-162.0638027777778,0,CAPE NEWENHAM LRRS
55.96629,-133.7967211111111,1,CAPE POLE
61.781015277777776,-166.0395763888889,0,CAPE ROMANZOF LRRS
54.58243111111111,-164.91448083333333,0,CAPE SARICHEF
58.19906861111111,-136.63881055555555,0,CAPE SPENCER C G
65.57394444444444,-144.7808888888889,0,CENTRAL
66.64502777777778,-143.73988888888888,0,CHALKYITSIK
68.06543944444444,-149.57973916666666,0,CHANDALAR SHELF
67.50451666666666,-148.48322222222222,0,CHANDALAR LAKE
57.51493833333333,-134.946215,1,CHATHAM
60.136805555555554,-164.27905555555557,0,CHEFORNAK
65.05182555555555,-146.04743194444444,0,CHENA HOT SPRINGS
60.078561111111114,-147.9947347222222,0,CHENEGA BAY
61.540844444444446,-165.60089166666666,0,CHEVAK
61.79308888888889,-148.4924961111111,0,CASTLE MOUNTAIN AIRSTRIP
64.06675138888889,-141.9513472222222,0,CHICKEN
56.311462638888884,-158.37323819444444,0,CHIGNIK
56.295610555555555,-158.40147972222223,1,CHIGNIK BAY
56.310966666666666,-158.5344861111111,0,CHIGNIK LAGOON
56.25545694444445,-158.77783194444447,0,CHIGNIK LAKE
62.07175,-142.04935,0,CHISANA
62.56233333333333,-144.67244444444444,0,CHISTOCHINA
61.58320277777778,-144.42980277777778,0,CHITINA
61.579055555555556,-159.2156388888889,0,CHUATHBALUK
61.41786111111111,-149.4394888888889,0,HILLTOP
65.82791666666667,-144.07619722222222,0,CIRCLE CITY
65.48590694444445,-144.6116847222222,0,CIRCLE HOT SPRINGS
60.28778333333333,-151.34612222222222,1,HACKNEY LANDING
58.83369444444445,-158.5293888888889,0,CLARKS POINT
64.30038888888889,-149.11652777777778,0,CLEAR
64.25703416666667,-149.1862502777778,0,CLEAR SKY LODGE
56.01480388888889,-132.8339225,1,COFFMAN COVE
55.251627222222226,-162.75340444444444,1,BLINN LAKE
55.20526180555556,-162.7245216111111,0,COLD BAY
56.005985833333334,-160.56079194444445,0,PORT MOLLER
67.25216666666667,-150.20388888888888,0,COLDFOOT
63.56772305555556,-155.9890436111111,0,COLORADO CREEK
60.48426388888889,-149.7229,0,QUARTZ CREEK
61.94119,-145.29408083333334,0,COPPER CENTER 2
60.54364444444444,-145.72585416666666,0,CORDOVA MUNI
60.49177777777778,-145.47755555555557,0,MERLE K (MUDHOLE) SMITH
60.391152777777776,-146.0974638888889,0,STRAWBERRY POINT
64.89674722222223,-163.7034986111111,0,COUNCIL
55.47883138888889,-133.1478011111111,1,CRAIG
55.47522027777778,-133.1458563888889,0,CRAIG CG
55.95858888888889,-133.25337222222223,1,EL CAPITAN LODGE
67.37287222222221,-152.01607777777778,0,CREVICE CREEK
61.86788888888889,-158.13494444444444,0,CROOKED CREEK
62.03247638888889,-158.23640416666666,0,DONLIN CREEK
62.40094194444444,-146.01330472222222,0,CROSSWIND LAKE
66.94256141666666,-156.89136863888888,0,DAHL CREEK
70.34427777777778,-150.94475,0,ALPINE AIRSTRIP
70.13746666666667,-147.0304388888889,0,BADAMI
70.17128461111112,-146.2585696388889,0,CENTRAL PAD
70.19554586111111,-148.4657901111111,0,DEADHORSE
70.00383069444445,-153.07756819444444,0,INIGOK
70.13600000000001,-146.29002777777777,0,POINT THOMSON AIRSTRIP
66.06911111111111,-162.76705555555557,0,DEERING
63.941427777777776,-145.422225,0,ALL WEST
64.13736111111112,-145.83038888888888,0,ARCTIC ANGEL
64.0388625,-145.7389472222222,0,BUFFALO ROW
63.96182888888889,-145.47009194444445,0,CHEROKEE
64.13285833333333,-145.80449444444446,0,DELTA DAVES
64.05011666666667,-145.7224652777778,0,DELTA JUNCTION
64.46746388888889,-144.92089166666665,0,POGO MINE AIRSTRIP
64.04960944444444,-145.41899166666667,0,REMINGTON FIELD
63.999605833333334,-145.5023177777778,0,ROCKING T RANCH
64.02710888888889,-145.68017444444445,0,TROPHY LODGE
64.04960666666666,-145.50232416666665,0,WINGSONG ESTATES
63.99516030555556,-145.72002466666666,0,ALLEN AAF
59.044666666666664,-158.5055,0,DILLINGHAM
59.132583333333336,-157.77718055555556,0,NUSHAGAK
59.058975555555556,-158.57719,1,SHANNONS POND
65.75861111111111,-168.95305555555555,0,DIOMEDE
53.971111111111114,-166.87722222222223,0,DRIFTWOOD BAY AIR FORCE STATION
64.77808333333333,-141.1496111111111,0,EAGLE
61.35251944444445,-149.54635,1,D&C FIRE LAKE FLYING CLUB
61.2925,-149.53250000000003,0,HIGHLAND
60.21369444444445,-162.0438888888889,0,EEK
58.185490277777774,-157.3754277777778,0,EGEGIK
58.8111925,-158.5588425,0,EKUK
59.356833333333334,-157.4711388888889,0,EKWOK
58.97105861111111,-135.2373822222222,0,ELDRED ROCK CG
58.195184166666664,-136.3473927777778,1,ELFIN COVE
64.61497222222222,-162.2705277777778,0,ELIM
64.69818194444444,-162.05729916666667,0,MOSES POINT
60.89390777777778,-146.70369194444444,1,ELLAMAR
62.786138888888885,-164.49075,0,EMMONAK
57.412150555555556,-133.4394988888889,1,ENTRANCE ISLAND
61.93798333333333,-147.17008055555556,0,SKELTON
65.17591138888889,-150.22053861111112,0,EUREKA CREEK
64.04211111111111,-148.86313888888887,0,EVA CREEK
58.42049861111111,-135.44903277777777,1,EXCURSION INLET
64.81402777777778,-147.91855555555554,0,CHENA MARINA
64.83289944444444,-147.84825833333335,1,CHENA RIVER
64.83290777777778,-147.42464333333334,0,DALRYMPLE'S
64.66564444444445,-147.10143888888888,0,EIELSON AFB
64.81511111111111,-147.85644444444443,0,FAIRBANKS INTL
64.19805555555556,-147.9286111111111,0,GOLD KING CREEK
64.90928611111111,-147.91396111111112,0,HARDROCK FIELD
64.82166666666666,-147.52166666666668,0,LAKLOEY AIR PARK
64.80678999999999,-147.7624211111111,0,METRO FLD
64.8888888888889,-147.53559444444446,0,MOEN'S RANCH
64.92865833333333,-147.88057222222224,0,SKYFLIGHT
65.2565,-148.83025555555554,0,TOLOVANA HOT SPRINGS
64.81539916666667,-147.86214555555554,0,TUNDRA COPTER
64.36373916666666,-147.36375805555554,0,BLAIR LAKE
64.45345861111112,-147.56349194444445,0,CLEAR CREEK
64.83672438888888,-147.6162235,0,LADD AAF
57.532154444444444,-135.2134511111111,1,FALSE ISLAND
54.847861111111115,-163.4071111111111,0,FALSE PASS
62.50911111111111,-153.89028333333331,0,FAREWELL
62.542453888888886,-153.62251,1,FAREWELL LAKE
62.53212222222222,-153.61278888888887,0,TIN CREEK
64.83172722222221,-166.13152222222223,0,FEATHER RIVER
57.26993638888889,-133.6314513888889,0,FIVE FINGER CG
62.452648888888895,-157.98907,0,FLAT
61.26589930555556,-149.6533076388889,0,BRYANT AAF
64.83085555555556,-147.66045555555556,0,BACH HELIPAD
66.57241666666667,-145.24633333333333,0,FORT YUKON
58.25438583333333,-134.89790666666667,1,FUNTER BAY
68.47966666666667,-149.48991666666666,0,GALBRAITH LAKE
64.73616666666666,-156.9373888888889,0,EDWARD G PITKA SR
63.76661111111111,-171.73277777777778,0,GAMBELL
60.97,-149.1013888888889,0,ALYESKA RESORT
60.96902222222222,-149.11934583333334,0,GIRDWOOD
61.45513444444445,-142.38095083333334,0,GLACIER CREEK
61.80887666666666,-147.8593463888889,0,GATES RANCH
62.032805555555555,-146.67496666666665,0,SNOWSHOE LAKE AIRPORT AND SEAPLANE BASE
59.74703944444445,-158.8747275,1,GOLDEN HORN LODGE
64.55044444444444,-163.00716666666668,0,GOLOVIN
59.11786111111111,-161.57366666666667,0,GOODNEWS
61.39465,-149.84226944444444,0,GOOSE BAY
65.40213333333334,-161.281475,0,GRANITE MOUNTAIN AS
62.892085305555554,-160.0663968888889,0,GRAYLING
62.154944444444446,-145.45433333333332,0,GULKANA
62.28028333333333,-145.36276666666666,0,JACOBUS FIELD
58.42527777777777,-135.70741666666666,0,GUSTAVUS
59.31322222222222,-135.72322222222223,0,18 MEADOWS AERODROME
59.437555555555555,-136.2293611111111,0,35 MILE LODGE
59.403055555555554,-136.01361111111112,0,BIG SALMON
59.234951111111116,-135.44071805555555,1,HAINES
59.243829166666664,-135.5235375,0,HAINES
65.90485805555556,-163.3290925,0,UPPER HANNUM CREEK
58.12744138888889,-134.75595305555555,1,HAWK INLET
63.73843194444444,-148.88174972222222,0,ERA DENALI
63.867583333333336,-148.96883333333332,0,HEALY RIVER
55.801395,-160.89925444444444,0,HERENDEEN BAY
60.481675,-146.58425250000002,0,JOHNSTONE POINT
66.17613333333334,-155.68481666666668,0,HOG RIVER
55.49041666666667,-132.62355555555555,1,CLARK BAY
62.18830555555555,-159.77494444444446,0,HOLY CROSS
59.73828888888889,-151.02989416666668,0,BEAR COVE FARM
59.47,-151.5125,0,BOOTLEGGERS COVE
59.776069444444445,-150.9585138888889,0,BRADLEY LAKE HYDROELECTRIC PROJECT AIRSTRI
59.82854916666667,-153.08082472222222,0,CAMP POINT
59.775841666666665,-151.18163055555556,0,EASTLAND
59.76356472222222,-151.22324194444445,0,GLACIERVIEW STRIP
59.644995944444446,-151.4858084722222,0,HOMER
59.641555555555556,-151.5211277777778,1,HOMER-BELUGA LAKE
59.65226111111111,-151.55,0,SOUTH PENINSULA HOSPITAL
58.112159444444444,-135.45180499999998,1,HOONAH
58.09619916666667,-135.40875625,0,HOONAH
61.52386111111111,-166.1466111111111,0,HOOPER BAY
60.9072625,-149.6228125,0,HOPE
62.00723333333333,-141.1821138888889,0,HORSFELD
61.656308333333335,-149.8867222222222,0,BLACK SPRUCE
61.604150000000004,-149.77011944444445,0,GUS LANDING
61.60196944444444,-149.78418055555557,1,MORVRO LAKE
61.6126,-149.85228055555555,0,REIDS LANDING
61.6547,-149.9,0,SATTERBERGS
61.64818888888889,-149.87083055555556,0,TRIO ESTATES
66.03908333333334,-154.26469444444444,0,HUGHES
65.69786111111111,-156.3513888888889,0,HUSLIA
55.206316111111114,-132.82831305555555,1,HYDABURG
55.90331972222222,-130.00670305555556,1,HYDER
59.96901888888889,-141.66177027777778,0,ICY BAY
70.29248916666667,-161.90333416666667,0,ICY CAPE AFS
59.32404166666667,-155.90177277777778,0,IGIUGIG
59.75557811111111,-154.91775224999998,0,ILIAMNA
65.67347722222223,-162.46406277777777,0,INDEPENDENCE CREEK
55.897533333333335,-159.48866888888887,1,IVANOF BAY
59.45216055555556,-151.52238111111112,0,JAKOLOF BAY
57.88509972222222,-157.0968202777778,0,FORT JENSEN
58.39078055555556,-134.7768,0,ALASCOM/COASTAL LENA POINT
58.32870277777778,-134.4657111111111,0,BARLETT REGIONAL HOSPITAL
58.29888888888889,-134.4077777777778,1,JUNEAU HARBOR
58.35471180555556,-134.57847052777777,0,JUNEAU INTL
58.332173611111116,-134.49705333333333,0,NORTH DOUGLAS
58.59166666666667,-134.9,0,YANKEE COVE
56.97299638888889,-133.94561472222222,1,KAKE
56.9613625,-133.9102611111111,0,KAKE
70.17277777777778,-146.8361111111111,0,BULLEN POINT AIR FORCE STATION
64.42444722222223,-156.8433388888889,0,KALAKAKET CREEK AS
61.53597222222222,-160.34558333333334,0,KALSKAG
64.31898,-158.7413058333333,0,KALTAG
59.001752777777774,-158.53246444444446,0,ANS HOSPITAL
63.54098611111111,-150.99507777777777,0,KANTISHNA
63.75120555555556,-150.33026388888888,0,STAMPEDE
57.56605555555555,-154.45380555555553,0,KARLUK
57.36703583333333,-154.02759111111112,1,KARLUK LAKE
55.537413888888885,-132.39751444444443,1,KASAAN
60.873333333333335,-162.52430555555557,0,KASIGLUK
60.25555555555555,-151.30305555555557,1,ENCELEWSKI LAKE
60.350520833333334,-151.26285638888888,0,KASILOF
58.55484305555555,-155.7773875,1,LAKE BROOKS
69.6767763888889,-146.90004583333334,0,KAVIK STRIP
60.729440555555556,-151.27806833333335,0,BUTLER AVIATION
60.7025,-151.29416666666665,0,CARTY'S AIRSTRIP
60.50275833333333,-151.26000277777777,0,DOYLE ESTATES
60.5888675,-152.16197722222222,0,DRIFT RIVER
60.59306666666667,-151.32795555555555,0,HENLEY
60.704436111111114,-151.3114027777778,1,ISLAND LAKE
60.727222222222224,-151.1327777777778,1,JOE CLOUDS
60.632488888888886,-151.34001333333333,0,JOHNSON
60.57327777777778,-151.24483333333333,0,KENAI MUNI
60.529526499999996,-151.25673805555556,0,PRL LOGISTICS
55.38298416666667,-131.73501833333333,0,KETCHIKAN /TEMSCO H/
55.34446388888889,-131.6634388888889,1,KETCHIKAN HARBOR
55.354083333333335,-131.7112222222222,0,KETCHIKAN INTL
55.36748333333333,-131.7158111111111,0,MCCUES
55.389650277777775,-131.73807416666665,1,MURPHYS PULLOUT
55.38465055555555,-131.7383522222222,1,PENINSULA POINT PULLOUT
55.362500000000004,-131.70944444444444,0,WOLFE POINT
66.97594444444445,-160.43652777777777,0,BOB BAKER MEMORIAL
55.116347222222224,-162.26624722222223,0,KING COVE
58.67649347222222,-156.64869099999999,0,KING SALMON
59.93161111111111,-164.02811111111112,0,KIPNUK
58.19094611111111,-152.3704875,1,KITOI BAY
67.73613888888889,-164.5635,0,KIVALINA
55.5546575,-133.10169277777777,1,KLAWOCK
55.579233333333335,-133.0759972222222,0,KLAWOCK
66.91233333333334,-156.89733333333334,0,KOBUK
57.749966666666666,-152.49379444444443,0,KODIAK
57.80258388888888,-152.38273166666667,1,KODIAK /LILLY LAKE/
57.8059175,-152.3738413888889,0,KODIAK MUNI
57.780833333333334,-152.39138888888888,1,TRIDENT BASIN
59.43328611111111,-154.80259166666667,0,KOKHANOK
59.72675,-157.26025,0,KOLIGANEK
59.96163083333334,-162.8805938888889,0,KONGIGANAK
63.03058333333333,-163.5326388888889,0,KOTLIK
66.88480555555556,-162.5981388888889,0,RALPH WIEN MEMORIAL
64.93952777777778,-161.1542777777778,0,KOYUK ALFRED ADAMS
64.87580555555554,-157.73044444444446,0,KOYUKUK
58.96500555555556,-155.09561250000002,0,KULIK LAKE
70.48248055555555,-149.85323333333332,0,NIKAITCHUQ OPERATIONS CENTER
70.34304166666666,-149.5890638888889,0,PAD-66
70.55624999999999,-149.9105277777778,0,SPY ISLAND DRILL-SITE
70.33066666666666,-149.59805555555556,0,UGNU-KUPARUK
60.79033333333333,-161.44369444444445,0,KWETHLUK
59.87558472222222,-163.1680375,0,KWIGILLINGOK
62.29161805555555,-146.57735,0,LAKE LOUISE
62.28285527777778,-146.51886694444445,1,LAKE LOUISE
62.29111111111111,-147.40694444444446,0,RED CREEK
57.53508333333333,-153.97666666666666,0,LARSEN BAY
60.41188472222222,-149.36934166666668,0,LAWING
56.89948722222222,-154.24784666666665,1,ALITAK
59.12708333333333,-156.8598888888889,0,LEVELOCK
61.35913055555556,-155.4403861111111,0,LIME VILLAGE
61.25708916666667,-153.79788305555556,0,STONY MOUNTAIN LODGE
65.46726944444444,-148.65374722222222,0,LIVENGOOD CAMP
70.91074527777778,-153.242215,0,LONELY AS
61.3778825,-143.32595833333332,0,LONG LAKE
55.601305833333335,-131.63668305555555,1,LORING
62.98988222222222,-144.4799988888889,0,MANKOMEN LAKE
64.98794444444445,-150.64758333333333,0,MANLEY HOT SPRINGS
58.93205555555555,-158.9018888888889,0,MANOKOTAK
61.86416666666667,-162.02611111111113,0,MARSHALL DON HUNTER SR
61.33616111111111,-142.6858861111111,0,MAY CREEK
61.35651388888889,-142.73344444444444,0,YOUNG CREEK
61.41902777777778,-142.9842361111111,0,IVERSON FARM
61.218872222222224,-142.8912111111111,0,JAKES BAR
61.43781908333333,-142.902503,0,MCCARTHY
61.41122444444444,-143.001235,0,SWIFT CREEK
62.54538888888889,-154.0021111111111,0,HINKES
62.95278391666667,-155.60704805555554,0,MC GRATH
62.957985,-155.5931791666667,1,MC GRATH
63.22918055555556,-154.76033611111112,0,NIXON FORK MINE
63.64509944444444,-148.79813055555556,0,DENALI
63.732598333333335,-148.91063833333334,0,MC KINLEY NATIONAL PARK
61.61575,-149.70693055555554,0,TOAD LAKE STRIP
60.37238888888889,-166.27019444444446,0,MEKORYUK
55.13104527777778,-131.5780675,1,METLAKATLA
55.73963611111111,-132.25501833333334,1,MEYERS CHUCK
59.44994361111111,-146.30724055555558,0,MIDDLETON ISLAND
63.88597222222222,-152.30183333333335,0,MINCHUMINA
65.14816666666667,-149.36858333333333,0,MINTO AL WRIGHT
62.034825,-150.49104444444444,0,PARKER LAKE
62.59904277777778,-157.15180583333333,0,MOORE CREEK
60.64108111111111,-149.49713444444444,1,SUMMIT LAKE
57.02558555555555,-154.1459186111111,1,MOSER BAY
62.09477777777778,-163.6828611111111,0,MOUNTAIN VILLAGE
62.40184611111111,-142.99546805555553,0,DEVILS MOUNTAIN LODGE
58.927605,-157.04715222222222,0,NAKEEN
58.73466286111111,-157.02521041666668,0,NAKNEK
58.73426972222222,-157.00714194444444,0,TIBBETTS
61.703401,-150.008954,1,NANCY LAKE
59.24099916666667,-151.8771152777778,0,DOG FISH BAY
59.35214833333333,-151.92515583333332,0,NANWALEK
61.536313888888884,-158.7389638888889,0,NAPAIMUTE PIONEER AIRFIELD
60.69033333333333,-161.9785,0,NAPAKIAK
60.70291666666667,-161.77830555555556,0,NAPASKIAK
56.00753611111111,-161.16036722222222,0,NELSON LAGOON
64.54732919444444,-149.07397519444444,0,NENANA MUNI
59.451527777777784,-157.37316666666666,0,NEW STUYAHOK
60.939138888888884,-164.64124999999999,0,NEWTOK
60.923654166666665,-164.65621388888889,1,NEWTOK
60.46917083333334,-164.7040375,0,NIGHTMUTE
60.72527361111111,-151.3022361111111,0,MCGAHAN INDUSTRIAL AIRPARK
60.77316666666667,-151.23052777777778,0,HIGH VISTA
60.73972222222222,-151.30833333333334,0,OFFSHORE SYSTEMS-KENAI
63.01855555555556,-154.35844444444444,0,NIKOLAI
52.94155555555555,-168.8490277777778,0,NIKOLSKI AS
60.02023416666667,-151.5894186111111,0,NINILCHIK
67.56116666666667,-162.98041666666666,0,NOATAK
64.51255258333333,-165.44437052777778,0,NOME
64.51142227777778,-165.39023022222221,0,NOME CITY FIELD
59.98023027777778,-154.83917472222223,0,NONDALTON
66.81752777777777,-161.02225,0,ROBERT/BOB/CURTIS MEMORIAL
64.77318722222222,-147.33380222222223,0,AIRWAY
64.75922222222222,-147.3876388888889,0,BRADLEY SKY-RANCH
64.54388888888889,-146.84416666666667,0,GREG'N SAGE
64.73068666666667,-147.34768666666668,0,HOWARDS
64.7717611111111,-147.24669166666666,0,LAKEWOOD
64.39250000000001,-146.86208333333332,0,SCOTTS
64.76944444444445,-147.32944444444445,0,TIMBER TRAILS
56.11631055555556,-133.12171527777778,1,NORTH WHALE
62.96116666666667,-141.92808333333332,0,NORTHWAY
62.51725611111111,-150.94534166666668,0,NUGGET BENCH
70.42062222222222,-150.88666666666666,0,CD-3 AIRSTRIP
70.20983333333334,-151.00647222222221,0,NUIQSUT
70.49542222222222,-150.25346666666667,0,OOOGURUK ISLAND
70.4141,-150.01859166666668,0,PIONEER
64.72933333333333,-158.07422222222223,0,NULATO
60.906,-162.44058333333334,0,NUNAPITCHUK
60.98065527777778,-159.993685,0,NYAC
57.21830555555556,-153.26983194444446,0,OLD HARBOR
57.161452499999996,-154.22979333333333,1,OLGA BAY
63.145919444444445,-156.52890833333333,0,OPHIR
57.942155166666666,-152.46499305555554,0,OUZINKIE
61.62883055555556,-149.0431888888889,0,ABI
61.594722222222224,-149.1538888888889,0,ALASKA HELIWORX
61.59295,-149.2689388888889,0,B & B BOYS RANCH
61.530315277777774,-149.01763611111113,0,BUTTE MUNI
61.62503888888889,-149.28858055555554,0,CARDWELL STRIP
61.55701111111111,-149.2682888888889,0,COLBERG
61.60469722222222,-149.04018888888888,0,EAGLE NEST
61.682030555555556,-149.2907361111111,0,ELK RANCH
61.607,-149.2694,1,FINGER LAKE
61.602466666666665,-149.248,0,FOUR CORNERS
61.58602777777778,-149.23598055555553,0,GILMORE STRIP
61.548519444444445,-149.19031111111113,0,GRANDVIEW SUBDIVISION
61.65518055555555,-149.2734888888889,0,GROUSE RIDGE
61.664,-149.2536,0,HIGH RIDGE ASSOCIATION
61.457633333333334,-148.79535833333333,0,HUNTER CREEK
61.63801111111111,-149.0289111111111,0,MARTIN
61.56224444444444,-149.260325,0,MAT-SU RGNL MEDICAL CENTER
61.6275,-149.28673055555555,0,NIKLASON LAKE ESTATES
61.59491361111111,-149.0887113888889,0,PALMER MUNI
61.58861111111111,-149.14249999999998,0,PAT-MAR STRIP
61.55456944444444,-149.14444444444445,0,SKY RANCH AT PIONEER PEAK
61.63086944444444,-149.2317888888889,1,STORMY HILL
61.64683055555555,-149.04853888888888,0,VINDUSKA
61.616419444444446,-149.22103055555556,1,WALBY LAKE
61.668661111111106,-149.1873888888889,0,WASILLA CREEK AIRPARK
61.640969444444444,-149.28875,0,WOLF LAKE
63.02458,-145.50055083333334,0,PAXSON
59.79694444444444,-154.12997222222222,0,PEDRO BAY
57.955172222222224,-136.23627333333332,1,PELICAN
60.68528694444444,-147.9187361111111,1,PERRY ISLAND
55.90672361111111,-159.16082916666667,0,PERRYVILLE
56.81131972222222,-132.96005666666665,1,LLOYD R ROUNDTREE SEAPLANE FACILITY
56.801472222222216,-132.94622222222222,0,PETERSBURG JAMES A JOHNSON
57.58038055555556,-157.57195694444445,0,PILOT POINT
57.425358055555556,-157.73986555555555,0,UGASHIK BAY
61.934555555555555,-162.89955555555554,0,PILOT STATION
59.017830555555555,-161.82719166666666,0,PLATINUM
58.91171583333333,-161.71389166666665,0,PLATINUM MINE
56.35185972222222,-133.6225863888889,1,POINT BAKER
68.34875,-166.79927777777777,0,POINT HOPE
69.7328888888889,-163.00533333333334,0,POINT LAY LRRS
61.43991111111111,-150.0261,0,CARPENTIERS STRIP
61.332550000000005,-150.0590527777778,0,FALCON LAKE STRIP
61.25588055555556,-149.97465555555556,0,MAC KENZIE COUNTRY AIRPARK
61.43601944444444,-150.12236111111113,0,POINT MAC
61.24945138888889,-150.03556055555555,0,POINT MACKENZIE
61.38046111111111,-150.11625,0,ROBIN'S LANDING
61.25148055555555,-149.9822211111111,0,SLEEPERS STRIP
61.35333333333333,-150.0825,0,TURINSKY AIRSTRIP
56.24684222222222,-134.64815388888888,1,PORT ALEXANDER
55.784905277777774,-133.59422361111112,1,PORT ALICE
60.20433333333334,-154.31887277777778,0,PORT ALSWORTH
60.19863861111111,-154.324705,0,WILDER/NATWICK LLC
57.93011111111111,-153.04055916666667,1,PORT BAILEY
65.25345555555556,-166.85762777777776,0,PORT CLARENCE CGS
59.348475,-151.8303222222222,0,PORT GRAHAM
56.95910111111112,-158.63336194444443,0,PORT HEIDEN
57.884925,-152.84757222222223,0,PORT LIONS
56.32880416666667,-133.61008444444442,1,PORT PROTECTION
56.38101722222222,-134.6509311111111,1,PORT WALTER
58.490136944444444,-152.582165,1,PORT WILLIAMS
58.906525,-157.71116666666666,0,PORTAGE CREEK
66.81405555555556,-150.6436111111111,0,PROSPECT CREEK
70.49210000000001,-148.70364444444442,0,NORTHSTAR
62.940755555555555,-152.26960972222224,0,PURKEYPILE
65.35471944444444,-149.76137777777777,0,QUAIL CREEK
65.40593305555556,-164.65572472222223,0,QUARTZ CREEK /KOUGAROK/
59.755094444444445,-161.84536666666668,0,QUINHAGAK
62.08414194444445,-152.71752472222224,0,RAINY PASS LODGE
65.5079,-150.14083333333332,0,RAMPART
61.78805555555555,-157.35025,0,RED DEVIL
68.0321111111111,-162.89919444444445,0,RED DOG
64.72722222222222,-155.4698888888889,0,RUBY
61.899,-161.43972222222223,0,KAKO
61.77488888888889,-161.31938888888888,0,RUSSIAN MISSION
56.88633222222222,-134.1583877777778,1,SAGINAW
64.90900972222222,-165.01471666666666,0,SALMON LAKE
57.73037444444444,-153.3205972222222,1,SAN JUAN /UGANIK/
55.313694444444444,-160.52141666666668,0,SAND POINT
63.686277777777775,-170.49316666666667,0,SAVOONGA
61.84454166666667,-165.57375,0,SCAMMON BAY
66.76604361111112,-160.15277,0,ROLAND NORTON MEMORIAL AIRSTRIP
66.60013888888888,-159.98575,0,SELAWIK
59.44390555555555,-151.70504166666666,0,SELDOVIA
59.434105277777775,-151.7076611111111,1,SELDOVIA
60.10579444444445,-149.44625555555555,0,PROVIDENCE SEWARD MEDICAL CENTER
60.13008055555556,-149.41684444444442,0,SEWARD
62.69230555555555,-159.5692222222222,0,SHAGELUK
64.37108333333333,-161.22397222222222,0,SHAKTOOLIK
61.811280555555555,-147.50905138888888,0,SHEEP MOUNTAIN
62.52041666666666,-164.8476388888889,0,SHELDON POINT
52.71225833333334,174.11358888888887,0,EARECKSON AS
66.24958333333333,-166.08936111111112,0,SHISHMAREF
66.88808333333334,-157.16241666666667,0,SHUNGNAK
57.04083333333333,-135.29555555555555,1,DOVE ISLAND LODGE
57.05213777777777,-135.3462086111111,1,SITKA
57.04683436111111,-135.36106869444444,0,SITKA ROCKY GUTIERREZ
59.46006194444445,-135.31566361111112,0,SKAGWAY
61.93512222222222,-150.9897861111111,0,RIVER JOHN
61.9661125,-151.1953902777778,0,SKWENTNA
61.85277777777778,-151.40833333333333,0,TALACHULITNA RIVER
61.67467222222222,-151.384875,0,TALAHEIM
62.72461194444445,-143.92051444444442,0,DUFFYS TAVERN
61.700500000000005,-157.16586111111113,0,SLEETMUTE
58.134395833333336,-133.72951305555557,0,SNETTISHAM
60.51777777777777,-150.9597222222222,0,BANGERTER FIELD
60.50359666666667,-150.9355502777778,0,DAHLER HOMESTEAD
60.477763055555556,-150.92860555555555,0,DAN FRANCE
60.476371944444445,-151.16611361111111,0,GAEDE
60.52415444444444,-150.75220916666666,0,KENAI RIVER AIRPARK
60.53361111111111,-150.99555555555554,1,MACKEYS LAKES
60.48916666666667,-150.80166666666668,0,MOOSE RUN AIRSTRIP
60.47513888888889,-151.03963888888887,0,SOLDOTNA
60.492647222222224,-151.07893333333334,0,SOLDOTNA HOSPITAL H
64.56064138888888,-164.4423277777778,0,SOLOMON STATE FIELD
58.702083333333334,-157.00258333333332,0,SOUTH NAKNEK NR 2
61.09711388888889,-155.57480833333332,0,SPARREVOHN LRRS
55.23333916666667,-160.5520263888889,1,SQUAW HARBOR
56.57736111111112,-169.66372222222222,0,ST GEORGE
62.06083333333333,-163.30183333333335,0,ST MARY'S
63.49005555555556,-162.11038888888888,0,ST MICHAEL
57.16630555555555,-170.22255555555554,0,ST PAUL ISLAND
55.52963861111111,-133.6416972222222,1,STEAMBOAT BAY
63.515972222222224,-162.27800000000002,0,STEBBINS
60.52898333333333,-150.62513333333334,0,ALASKA AIRPARK
60.54105,-150.59921666666668,0,BREEDEN
60.540277777777774,-150.86805555555557,0,DUTCH LANDING STRIP
60.53449722222222,-150.9392861111111,0,LAKEWOOD AIRSTRIP
60.529444444444444,-150.83083333333332,0,SCOOTER'S LANDING STRIP
60.697197499999994,-150.17994916666666,0,SOUTH GASLINE
60.55121111111111,-150.8490277777778,0,STERLING AIR PARK
66.01716666666667,-149.05436111111112,0,STEVENS VILLAGE
61.78975,-156.58852777777778,0,STONY RIVER 2
63.331040138888895,-149.12883611111113,0,SUMMIT
61.371945277777776,-150.26222361111112,0,LITTLE SUSITNA
61.70403055555556,-148.9087888888889,0,CRAG MOUNTAIN
61.79111111111111,-148.35166666666666,0,KING RANCH
62.99294444444445,-156.02972222222223,0,TAKOTNA
62.89491527777778,-155.9780125,0,TATALINA LRRS
58.06911388888889,-134.01535638888888,1,TAKU HARBOR
58.48968305555556,-133.94342111111112,1,TAKU LODGE
62.30743333333333,-149.75208333333333,0,BALD MOUNTAIN
62.242288888888886,-150.0658138888889,0,BIRCH CREEK LANDING
62.4775,-147.77472222222224,0,BUSCH CREEK
62.173902777777776,-150.064275,0,CARL'S LANDING
62.16289722222222,-150.53960833333332,0,DAVIDSON STRIP
62.08261111111111,-150.06693055555556,0,MONTANA CREEK
62.024480833333335,-149.9772425,0,SECLUDED LAKE
62.51015,-149.92671666666666,0,SHUMP
62.563766666666666,-150.22050000000002,0,SONGLO VISTA
62.69962777777778,-148.90741111111112,0,STEPHAN LAKE LODGE
62.321361111111116,-150.09272222222222,0,TALKEETNA
62.31893666666667,-150.11614777777777,0,TALKEETNA VILLAGE STRIP
63.37406380555556,-143.32898975,0,TANACROSS
64.64739166666668,-151.80987222222222,0,ART Z
65.1743888888889,-152.1081111111111,0,RALPH M CALHOUN MEMORIAL
60.87238888888889,-146.69116666666667,0,TATITLEK
62.29328694444444,-153.36195305555555,0,TATITNA
65.67927527777778,-164.79880694444444,0,TAYLOR
60.867777777777775,-157.39194444444445,0,TAYLOR MOUNTAIN
62.064788611111105,-146.46052194444442,0,TAZLINA
62.063399999999994,-146.4494113888889,1,TAZLINA /SMOKEY LAKE/
63.37898472222222,-153.28421527777778,0,TELIDA
65.24038888888889,-166.3393888888889,0,TELLER
57.77965833333333,-135.21844388888888,1,TENAKEE
63.124694444444444,-142.51855555555557,0,TETLIN
55.68796194444444,-132.53667583333333,1,THORNE BAY
59.96316027777778,-158.477235,1,TIKCHIK LODGE
65.56403333333333,-167.9224583333333,0,TIN CITY LRRS
59.053555555555555,-160.39677777777777,0,TOGIAK
62.51213166666667,-143.23547138888887,0,SPORTSMENS PARADISE
63.299927499999995,-143.02333972222223,0,TOK 2
63.329514305555556,-142.95368402777777,0,TOK JUNCTION
55.93713333333333,-133.3267213888889,1,TOKEEN
60.541333333333334,-165.08719444444446,0,TOKSOOK BAY
62.11341138888889,-146.04106666666667,1,TOLSONA LAKE
64.02565972222222,-148.52233750000002,0,TOTATLANIKA RIVER
60.81554916666666,-151.79891722222223,0,TRADING BAY PRODUCTION
62.513888888888886,-150.26527777777778,0,FORT CROSBY AIRPORT
62.56769083333334,-150.23602138888887,0,MC KINLEY COUNTRY
62.312777777777775,-150.33583333333334,0,RANGEVIEW AIRSTRIP
62.567552777777784,-150.23588333333333,0,ERA CHULITNA RIVER
61.08772916666667,-160.92335416666666,0,TULUKSAK
60.341456666666666,-162.66562055555556,1,TUNTUTULIAK
60.335345555555556,-162.66700944444443,0,TUNTUTULIAK
60.56952777777778,-165.2462833333333,0,TUNUNAK
55.84964277777778,-133.2278275,1,NAUKATI BAY
59.074525,-160.27504166666668,0,TWIN HILLS
62.19733333333333,-147.41083333333333,0,TYONE CREEK 907AU CAMP
61.180769444444444,-151.0411472222222,0,BELUGA
61.01388444444444,-151.44891027777777,0,NIKOLAI CREEK
61.076662500000005,-151.13807027777776,0,TYONEK
57.51640972222222,-157.38595138888888,0,RANDY BRIGGS MEM FLD
57.523424999999996,-157.39599444444443,0,UGASHIK
69.37111266666666,-152.13498266666667,0,UMIAT
63.8885,-160.7991111111111,0,UNALAKLEET
53.898944444444446,-166.5450277777778,0,UNALASKA
65.99277222222223,-153.70348888888887,0,INDIAN MOUNTAIN LRRS
61.13,-146.37055555555557,0,CVTC FIELD
61.08712222222223,-146.14400833333332,1,ROBE LAKE
61.17727027777777,-145.68843388888888,0,THOMPSON PASS
61.13661111111111,-146.3453888888889,0,VALDEZ HOSPITAL
61.13421527777778,-146.24476194444443,0,VALDEZ PIONEER FIELD
67.008675,-146.36635833333332,0,VENETIE
61.803374444444444,-147.94415333333333,0,VICTORY
70.638,-159.99474999999998,0,WAINWRIGHT
70.61337777777777,-159.86034999999998,0,WAINWRIGHT AS
65.62255555555555,-168.09497222222222,0,WALES
61.616880555555554,-149.32153888888888,0,ANDERSON LAKE
61.48233333333334,-149.7639861111111,0,BIRCHWATER
61.576080555555556,-149.67556944444445,1,BLODGETT LAKE
61.52763888888889,-149.4963111111111,0,BLUFF PARK FARM
61.66253888888889,-149.3919,0,BOISSELLE'S STRIP
61.60741111111111,-149.2795,0,CAROL'S
61.63346111111111,-149.68238055555554,0,CIZEK NORTH
61.597611111111114,-149.31636111111112,1,COTTONWOOD LAKE
61.552588888888884,-149.33966111111113,0,FAIRVIEW EAST
61.540013888888886,-149.5487611111111,0,FAIRVIEW WEST
61.343338888888894,-150.06663055555558,0,FLYWAY FARM AIRSTRIP
61.627250000000004,-149.60933055555554,0,GANNON'S LANDING
61.59916666666667,-149.34694444444446,0,GATTIS STRIP
61.446666666666665,-149.76111111111112,0,GRAND HOME
61.559374999999996,-149.62428888888888,0,GREBE LAKE
61.597950000000004,-149.3505111111111,0,GREEN'S STRIP
61.62125,-149.61491944444444,0,HESS
61.591880555555555,-149.67791111111111,0,HUNT STRIP
61.48183888888889,-149.74401944444443,0,HUTTUNEN STRIP
61.628902777777775,-149.6178402777778,1,ISLAND LAKE
61.54148055555555,-149.46068055555554,0,JACK FISH LANDING
61.57908055555556,-149.53885,1,JACOBSEN LAKE
61.59355,-149.56650000000002,0,JOLLY FIELD
61.62761944444444,-149.57533055555555,0,JUNE LAKE AIRPARK
61.60076111111111,-149.57916944444443,0,KALMBACH
61.607061111111115,-149.57385,1,KALMBACH LAKE
61.495780555555555,-149.69931944444446,0,LAWRENCE AIRSTRIP
61.62406111111111,-149.6483,0,LEISUREWOOD AIRSTRIP
61.55938888888888,-149.70546944444445,0,LINCOLN VILLAGE AIRPARK
61.56054527777778,-149.36860805555557,0,MCDONALD RIDGE
61.56245,-149.66783888888887,0,MELS
61.62888888888889,-149.42361111111111,1,MEMORY LAKE
61.63135,-149.43241944444443,0,MEMORY LAKE
61.55073888888889,-149.67613055555555,1,MISTY LAKE
61.6292,-149.27108055555556,1,NIKLASON LAKE
61.63,-149.68258055555555,0,NORTH CUBS STRIP
61.63178055555556,-149.34061111111112,0,PENDEROSA
61.6175,-149.6147388888889,0,PIPER LANDING
61.57472222222223,-149.635,0,RAINBOW HEIGHTS ESTATES AIRSTRIP
61.5009,-149.6397,0,SETTLERS BAY AIRSTRIP
61.58568888888889,-149.56335,0,SHAWN FIELD
61.65153055555555,-149.28848055555557,0,SOLOY STRIP
61.534638888888885,-149.6701,0,SOUTH HOLLYWOOD
61.557988888888886,-149.42407777777777,0,ST JOHN HOMESTEAD
61.59333055555556,-149.32623055555555,0,STRO'S
61.52341944444444,-149.7148611111111,0,SUNSET STRIP
61.50266944444444,-149.59565555555557,0,TIDEWATER
61.657088888888886,-149.4617111111111,0,TODDS STRIP
61.587247222222224,-149.33453055555557,0,T-TIME
61.61815,-149.66918888888887,0,TULAKES
61.588750000000005	,-149.3850611111111,1,UPPER WASILLA LAKE
61.642580555555554,-149.62445,0,VALLEY FLYING CROWN
61.572861111111116,-149.5747,1,WALLIS LAKE SPB
61.57198613888889,-149.53955669444446,0,WASILLA
61.05,-149.40749916666667,1,WASILLA LAKE
61.53344444444444,-150.10244444444444,0,WEST PAPOOSE LAKE AIRPARK
61.624742222222224,-149.68223,0,WOLF TRACK
61.59408055555556,-149.31073055555558,0,YUKNIS
55.296322777777775,-133.24333583333333,1,WATERFALL
57.770109444444444,-153.54894805555554,1,WEST POINT VILLAGE
64.68919444444445,-163.41275000000002,0,WHITE MOUNTAIN
60.777169444444446,-148.71965277777778,0,WHITTIER
61.717222222222226,-150.10944444444445,0,AK-10 AIRSTRIP
61.734944444444444,-150.5375138888889,0,C T S
61.71223888888889,-150.06333055555558,0,HONEYBEE LAKE AERO PARK
61.70519166666667,-150.59934166666667,0,JEWELL
61.835303055555556,-150.07973833333332,1,KASHWITNA LAKE
61.76557666666667,-150.33890555555556,0,LAUB
61.72565,-150.0912111111111,1,LONG LAKE
61.72931944444445,-150.09766944444445,0,LONG LAKE
61.72131111111111,-150.04686944444444,1,MINUTEMAN LAKE
61.72027777777778,-150.05444444444444,0,MINUTEMAN STRIP
61.69596388888888,-149.95490277777776,0,PAN LAKE STRIP
61.640655555555554,-150.51614722222223,0,POKER BLUFF
61.87691111111111,-150.0976388888889,0,RUSTIC WILDERNESS
61.74471944444444,-150.1154611111111,0,SHIRLEY LAKE
61.73861111111111,-150.0727777777778,0,SKID MARKS
61.78991944444444,-150.1060388888889,0,THOMAS STRIP
61.75418888888889,-150.0517388888889,0,WILLOW
61.72473333333333,-150.68342777777778,0,YENTNA BEND STRIP
67.40510694444446,-150.1208777777778,0,WISEMAN
56.466325000000005,-132.38001805555555,1,WRANGELL
56.48433333333333,-132.36983333333333,0,WRANGELL
60.080848611111115,-142.49549444444443,0,YAKATAGA
59.19913333333333,-138.44587777777778,0,ALSEK RIVER
59.16433333333333,-138.48880555555553,0,DRY BAY
59.12628472222222,-138.40883194444444,0,EAST ALSEK RIVER
59.41439583333333,-139.03372083333332,0,HARLEQUIN LAKE
59.55287083333333,-139.5102222222222,0,SITUK
59.24959722222222,-138.5041652777778,0,TANIS MESA
59.57769444444445,-139.74994444444442,1,YAKUTAT
59.50332202777778,-139.6602688888889,0,YAKUTAT
63.001868055555555,-156.36736027777778,0,YANKEE CREEK 2
55.91630138888889,-131.8011336111111,1,YES BAY LODGE
65.31152083333333,-143.13411944444442,0,COAL CREEK
